City_ID,City,Country,Max Temp,Current Weather,Lat,Lng,Hotel Name
0,Kapaa,US,80.58,few clouds,22.0752,-159.319,Sheraton Kauai Coconut Beach Resort
1,Rikitea,PF,74.1,overcast clouds,-23.1203,-134.9692,People ThankYou
6,Castro,BR,71.8,scattered clouds,-24.7911,-50.0119,CHACARA BAILLY
7,Los Llanos De Aridane,ES,71.35,clear sky,28.6585,-17.9182,Valle Aridane
9,Atuona,PF,77.29,scattered clouds,-9.8,-139.0333,Villa Enata
10,Jamestown,US,77.02,overcast clouds,42.097,-79.2353,Hampton Inn & Suites Jamestown
12,Puerto Ayora,EC,78.76,overcast clouds,-0.7393,-90.3518,Finch Bay Galapagos Hotel
15,Butaritari,KI,81.37,light rain,3.0707,172.7902,Isles Sunset Lodge
21,Albany,US,80.06,overcast clouds,42.6001,-73.9662,
22,Faanui,PF,78.96,clear sky,-16.4833,-151.75,Bora-Bora Pearl Beach Resort & Spa
29,Hilo,US,80.33,overcast clouds,19.7297,-155.09,Hilo Hawaiian Hotel
36,Shingu,JP,76.86,clear sky,33.7333,135.9833,Shingu UI Hotel
37,San Lawrenz,MT,87.21,clear sky,36.0553,14.204,San Andrea Hotel
38,Betong,TH,72.48,overcast clouds,5.7743,101.0723,New Cathay Hotel
39,San Andres,CO,87.82,few clouds,12.5847,-81.7006,Hotel Arena Blanca
41,Tual,ID,78.76,broken clouds,-5.6667,132.75,Grand Vilia Hotel
43,Lompoc,US,71.74,overcast clouds,34.6391,-120.4579,"Holiday Inn Express Lompoc, an IHG Hotel"
44,Yumen,CN,81.32,few clouds,40.2833,97.2,
47,San Lazaro,BZ,80.38,overcast clouds,18.0387,-88.6622,
49,Fujieda,JP,76.84,broken clouds,34.8667,138.2667,Toyoko INN Shizuoka Fujiedaeki Kitaguchi
50,Georgetown,MY,80.53,few clouds,5.4112,100.3354,Cititel Penang
51,Mayumba,GA,70.68,overcast clouds,-3.432,10.6554,LIKWALE LODGE
53,Odweyne,SO,81.05,broken clouds,9.4092,45.064,Eng Hiirey House
55,Labuhan,ID,76.66,broken clouds,-6.8844,112.2051,DoubleFAG
57,Bengkulu,ID,76.48,scattered clouds,-3.8004,102.2655,Grage Hotel Bengkulu
58,Guerrero Negro,MX,77.47,clear sky,27.9769,-114.0611,"Casa Laguna, Bed & Breakfast"
62,Arraial Do Cabo,BR,75.06,clear sky,-22.9661,-42.0278,Pousada Porto Praia
67,Salalah,OM,77.09,light intensity drizzle,17.0151,54.0924,"HAMDAN PLAZA HOTEL SALALAH, an HTG Hotel"
70,Srikakulam,IN,81.77,overcast clouds,18.3,83.9,Micro Systems
75,Pitimbu,BR,81.19,scattered clouds,-7.4706,-34.8086,Reserva do Abiaí
76,Kota Kinabalu,MY,75.18,heavy intensity rain,5.9749,116.0724,Gaya Centre Hotel
79,Kushima,JP,78.04,scattered clouds,31.4583,131.2333,Hanaoka
81,Gryazi,RU,74.35,overcast clouds,52.4966,39.9359,Гостиница Ника
82,Hami,CN,86.16,broken clouds,42.8,93.45,Laoyutang Resort
84,Shenjiamen,CN,80.1,clear sky,29.9576,122.298,Jinjiang Inn Zhoushan Putuo Shenjiamen
87,Calabazar De Sagua,CU,88.27,scattered clouds,22.6447,-79.8961,Hostal La Terraza
90,Namatanai,PG,78.8,overcast clouds,-3.6667,152.4333,Seagulls Inn Namatani
97,Bandarbeyla,SO,76.96,broken clouds,9.4942,50.8122,JABIR HOTEL
99,Maceio,BR,80.04,broken clouds,-9.6658,-35.7353,Hotel Ponta Verde Maceió
100,Puerto Colombia,CO,87.89,broken clouds,10.9878,-74.9547,Hotel El Emigrante
101,Naqadeh,IR,79.48,clear sky,36.9553,45.388,ایبنه شربین اووی
102,Lazaro Cardenas,MX,86.63,overcast clouds,17.9583,-102.2,HOTEL QUINTA ANTIGUA
103,Katsuura,JP,79.21,overcast clouds,35.1333,140.3,Katsuura Hotel Mikazuki
104,Pundaguitan,PH,82.96,broken clouds,6.3711,126.1689,Leonardo Family Beach House 1
105,Harrisonburg,US,83.17,heavy intensity rain,38.4496,-78.8689,Hampton Inn Harrisonburg - University
107,Goderich,CA,72.28,overcast clouds,43.7501,-81.7165,Harmony Inn
108,Puerto Escondido,MX,86.83,scattered clouds,15.85,-97.0667,Aldea del Bazar Hotel and Spa
112,Kahta,TR,88.97,clear sky,37.7855,38.6237,KommageneİZ Hotel
113,Biak,ID,75.16,overcast clouds,-0.9131,122.8766,Penginapan Kim
114,Gat,IL,83.39,clear sky,31.61,34.7642,OlusHome
116,Paris,FR,75.96,clear sky,48.8534,2.3488,Britannique Hotel - Paris Centre
119,Avarua,CK,71.65,broken clouds,-21.2078,-159.775,Paradise Inn
120,Klyuchi,RU,71.87,broken clouds,52.2667,79.1667,Vesolaya Mayovka
124,Novopokrovskaya,RU,71.19,broken clouds,45.9514,40.7006,Etalon hotel
125,Miri,MY,75.6,overcast clouds,4.4148,114.0089,"Mega Hotel, Miri"
128,Victoria,HK,86.95,clear sky,22.2855,114.1577,Mini Central
132,Mitchell,US,87.78,clear sky,43.7094,-98.0298,Kelly Inn & Suites
133,Takoradi,GH,76.8,broken clouds,4.8845,-1.7554,Raybow International Hotel
143,Vila Franca Do Campo,PT,75.61,broken clouds,37.7167,-25.4333,Pestana Bahia Praia
144,Qobustan,AZ,82.29,few clouds,40.0824,49.412,
145,Umm Lajj,SA,89.49,few clouds,25.0213,37.2685,Moon light Furnished Units
146,Omama,JP,75.45,overcast clouds,36.4333,139.2833,Kiryu Grand Hotel
147,Willmar,US,78.82,clear sky,45.1219,-95.0433,Lakeview Inn
150,Hithadhoo,MV,81.88,overcast clouds,-0.6,73.0833,Scoop Guest House
153,Hambantota,LK,79.41,overcast clouds,6.1241,81.1185,Bungalow 63
156,Oranjestad,AW,80.28,scattered clouds,12.524,-70.027,Divi Village Golf & Beach Resort
158,Tiznit,MA,85.03,clear sky,29.5833,-9.5,
160,Troy,US,75.51,overcast clouds,42.6056,-83.1499,Embassy Suites by Hilton Detroit Troy Auburn Hills
161,Carutapera,BR,85.24,scattered clouds,-1.195,-46.02,Lidera
169,Harper,LR,75.54,overcast clouds,4.375,-7.7169,Screensaver
172,Bambous Virieux,MU,71.22,light rain,-20.3428,57.7575,Casa Tia Villa
173,Ribeira Grande,PT,79.2,scattered clouds,38.5167,-28.7,Quinta da Meia Eira
174,Sorong,ID,77.41,overcast clouds,-0.8833,131.25,Waigo Splash Hotel
176,Ashqelon,IL,83.82,clear sky,31.6693,34.5715,Leonardo Ashkelon
178,Hamilton,US,81.61,overcast clouds,39.1834,-84.5333,Six Acres Bed & Breakfast
183,Poum,NC,72.32,overcast clouds,-20.2333,164.0167,
185,Port Blair,IN,81.91,overcast clouds,11.6667,92.75,"Welcomhotel By ITC Hotels, Bay Island, Port Blair"
187,Arras,FR,70.36,overcast clouds,50.293,2.7819,Appartements du Beffroi
189,Manono,CD,80.64,scattered clouds,-7.3,27.4167,Hotel hewa bora
194,Casper,US,82.72,clear sky,42.8666,-106.3131,Ramkota Hotel
195,Ugoofaaru,MV,82.09,broken clouds,5.6667,73.0,Ungoofaaru Inn
196,Grand-Lahou,CI,76.12,overcast clouds,5.1367,-5.0242,Hotel Beatitude de Grand Lahou
202,Artesia,US,87.87,clear sky,33.8658,-118.0831,Sheraton Cerritos Hotel
203,Roma,US,81.95,few clouds,43.2128,-75.4557,Wingate By Wyndham Rome
204,Tautira,PF,76.69,overcast clouds,-17.7333,-149.15,Pension Oaoa
205,Beyneu,KZ,88.59,broken clouds,45.3167,55.2,NUR
209,Ribeira Brava,PT,76.71,clear sky,32.65,-17.0667,Hotel do Campo
210,Kendari,ID,72.27,clear sky,-3.945,122.4989,Hotel Wixel
213,Corinto,GR,87.89,clear sky,37.9407,22.9573,Ephira Hotel
216,Ponta Do Sol,PT,76.71,clear sky,32.6667,-17.1,Hotel do Campo
219,Barentu,ER,70.07,overcast clouds,15.1139,37.5928,
226,Laguna De Perlas,NI,86.09,overcast clouds,12.3429,-83.6712,Hotel Best View
229,Sao Gabriel Da Cachoeira,BR,87.6,scattered clouds,-0.1303,-67.0892,Alarne - Área De Lazer Do Alto Rio Negro
231,Yanam,IN,79.29,broken clouds,16.7333,82.2167,The Regency Hotel
233,Grandview,US,83.07,broken clouds,38.8858,-94.533,Holiday Inn Express & Suites Kansas City-Grandview
235,Kulim,MY,80.13,overcast clouds,5.365,100.5618,Tune Hotel - Kulim
236,Bonthe,SL,76.26,light rain,7.5264,-12.505,Bonthe Holiday Village
237,Yarmouth,US,84.61,clear sky,41.7057,-70.2286,Blue Rock Resort
239,Ajdabiya,LY,81.28,clear sky,30.7554,20.2263,Almadina Hotel
240,Sidi Ali,DZ,80.46,clear sky,36.0998,0.4206,Complexe touristique haje bezine
242,Salina,US,88.95,broken clouds,38.8403,-97.6114,"Holiday Inn Express & Suites Salina, an IHG Hotel"
243,Bethel,US,87.37,scattered clouds,41.3712,-73.414,Courtyard by Marriott Danbury
245,Naze,JP,77.92,light rain,28.3667,129.4833,Shishime Hotel
246,Tura,IN,74.32,overcast clouds,25.5198,90.2201,Hotel RIKMAN Continental
247,Grand Gaube,MU,71.38,few clouds,-20.0064,57.6608,Veranda Paul et Virginie Hotel & Spa
249,Praia,CV,82.94,few clouds,14.9215,-23.5087,LT Aparthotel
252,Manggar,ID,80.85,overcast clouds,-2.8833,108.2667,Guest Hotel
254,Sinnamary,GF,82.36,scattered clouds,5.3833,-52.95,ALETHEIA Appartement Sinnamary
257,Canico,PT,76.71,few clouds,32.6333,-16.85,Quinta Splendida Wellness & Botanical Garden
258,Arcani,RO,77.79,few clouds,45.0833,23.1333,Casa Stroie
261,Camocim,BR,84.2,scattered clouds,-2.9022,-40.8411,Ilha Praia Hotel
262,Huejuquilla El Alto,MX,75.13,broken clouds,22.6,-103.8667,Hotel Huexuquillan
263,Bucerias,MX,89.98,broken clouds,20.75,-105.3333,Royal Decameron Complex - Puerto Vallarta
264,Anloga,GH,77.04,broken clouds,5.7947,0.8973,Pin Drop Hotel
265,Palampur,IN,71.26,overcast clouds,32.1167,76.5333,FLB Resorts Jerry's Jungle Huts
266,Chase,CA,89.08,clear sky,50.8165,-119.6857,Chase Country Inn Motel
267,Seoul,KR,80.17,clear sky,37.5683,126.9778,LOTTE HOTEL SEOUL
268,Road Town,VG,87.84,scattered clouds,18.4167,-64.6167,"ZINGARA 76ft Catamaran, full crew-all included"
270,Port Moresby,PG,76.42,scattered clouds,-9.4431,147.1797,Lamana Hotel (Port Moresby)
272,Lancaster,US,85.6,broken clouds,40.2504,-76.2499,Refreshing Mountain Retreat and Adventure Center
273,Dingle,PH,76.1,overcast clouds,10.9995,122.6711,SEGAYA PROPERTY
274,Hasaki,JP,77.4,overcast clouds,35.7333,140.8333,Inubosaki Kanko Hotel
277,Cayenne,GF,84.09,broken clouds,4.9333,-52.3333,Hôtel Le Dronmi
278,Darab,IR,79.92,moderate rain,28.7519,54.5444,Naghshe shapoor Hotel
281,Lumphat,KH,74.08,overcast clouds,13.4878,106.9816,Lumphat Homestay​ &​lake​side
285,Kloulklubed,PW,73.9,overcast clouds,7.0419,134.2556,Storyboard Beach Resort
286,Katra,IN,74.71,overcast clouds,32.9833,74.95,KC Residency Katra (4 Star) Experience the Luxuries of a 5 Star
287,Acapulco,MX,84.02,overcast clouds,16.8634,-99.8901,HS Hotsson Smart Acapulco
288,Lenger,KZ,80.04,broken clouds,42.183,69.8839,Gostevoy Dom 1
291,Hirara,JP,84.85,clear sky,24.8,125.2833,Hotel Atoll Emerald Miyakojima
292,Aguadilla,PR,87.66,scattered clouds,18.4275,-67.1541,WSSM Surf House
297,Kahului,US,80.62,few clouds,20.8947,-156.47,Maui Seaside Hotel
300,Lagoa,PT,73.33,broken clouds,39.05,-27.9833,Casa Das Faias
301,Amapa,BR,83.77,broken clouds,1.0,-52.0,
303,Sao Filipe,CV,80.53,broken clouds,14.8961,-24.4956,Hotel Xaguate
306,Sola,VU,79.59,broken clouds,-13.8833,167.55,Leumerus Bungalows
307,Tamala,RU,73.63,overcast clouds,52.541,43.2515,Kolkhoznyy Pereulok
308,Kismayo,SO,75.7,scattered clouds,-0.3582,42.5454,Agan-Hotel
309,Nouadhibou,MR,78.78,clear sky,20.931,-17.0347,El Medina
314,Banda Aceh,ID,78.46,light rain,5.5577,95.3222,OYO 884 Rumoh PMI Hotel
326,West Bay,KY,89.67,few clouds,19.3667,-81.4167,Calypso Cove
327,Saint-Francois,FR,78.24,clear sky,46.4154,3.9054,Manoir Du Bonheur
329,Suntar,RU,71.96,few clouds,62.1444,117.6319,Гостевая квартира
333,Palmer,US,84.43,broken clouds,42.1584,-72.3287,Wedgewood Motel
334,Altamira,BR,86.41,broken clouds,-3.2033,-52.2064,Requinte Hotel
339,Noumea,NC,70.0,clear sky,-22.2763,166.4572,Hôtel Le Lagon
340,Bathsheba,BB,88.41,scattered clouds,13.2167,-59.5167,Atlantis Hotel
341,Moron,AR,70.95,overcast clouds,-34.6534,-58.6198,Hotel Morón
342,Brigantine,US,86.04,broken clouds,39.4101,-74.3646,Legacy Vacation Resorts - Brigantine Beach
343,Pavullo Nel Frignano,IT,80.24,broken clouds,44.3315,10.835,Hotel Vandelli
344,Papayal,PE,84.24,broken clouds,-4.0761,-80.7361,
349,Iztapa,GT,87.85,scattered clouds,13.9333,-90.7075,Villas de Puerto Viejo
350,Kavieng,PG,82.27,overcast clouds,-2.5744,150.7967,Nusa Island Retreat
352,Concepcion Del Oro,MX,74.52,broken clouds,24.6333,-101.4167,Hotel Hacienda San Javier
355,Maragogi,BR,77.5,overcast clouds,-9.0122,-35.2225,Salinas do Maragogi All Inclusive Resort
356,Razole,IN,79.23,broken clouds,16.4833,81.8333,Sterling Palavelli Godavari
360,Gerash,IR,75.34,overcast clouds,27.6652,54.1371,Sa'adat House Gerash
361,Zhuhai,CN,87.85,few clouds,22.2769,113.5678,珠海粤财假日酒店
364,Caborca,MX,84.36,broken clouds,30.5838,-111.101,Hotel Los Lagos
366,Dwarka,IN,82.02,broken clouds,22.2394,68.9678,Hotel Narayan Avezika Comfort
367,Lorengau,PG,82.08,overcast clouds,-2.0226,147.2712,Lorengau Harbourside Hotel
369,Awash,ET,80.76,broken clouds,8.9833,40.1667,Kediga hotel
371,Lai,TD,71.47,overcast clouds,9.3952,16.2989,
373,Aplahoue,BJ,74.73,light rain,6.9333,1.6833,Hotel Immaculee
374,Gavrilov-Yam,RU,73.24,broken clouds,57.3018,39.8533,Karat
375,Atherton,GB,70.29,overcast clouds,53.5237,-2.4935,The Mercury Motel
376,Surt,LY,82.9,clear sky,31.2089,16.5887,الهادي ابوشعاله سرت
377,Calabozo,VE,89.65,scattered clouds,8.9242,-67.4293,Hotel Giardini
380,Narathiwat,TH,75.36,overcast clouds,6.3333,101.75,MUSOR
381,Makakilo City,US,80.92,clear sky,21.3469,-158.0858,Marriott's Ko Olina Beach Club
382,Caravelas,BR,75.88,scattered clouds,-17.7125,-39.2481,Pousada dos Navegantes
383,Asilah,MA,75.16,clear sky,35.465,-6.0348,Hotel Zelis
384,Luan,CH,72.23,few clouds,46.3592,6.9759,Hotel Appartement Castel Club Leysin Parc
386,Ippy,CF,70.47,light rain,6.2679,21.2247,
388,Puri,IN,82.92,overcast clouds,19.8,85.85,OYO 1577 Hotel Shree Hari Grand
389,Ixtapa,MX,89.22,broken clouds,20.7,-105.2,hotel la terminal
397,Fare,PF,78.35,light rain,-16.7,-151.0167,Maitai Lapita Village Huahine
401,Gigmoto,PH,80.47,overcast clouds,13.7796,124.39,Cj's Travellers Inn
402,Mae Ramat,TH,79.81,few clouds,16.984,98.5166,บ้านโฮ่งโฮมสเตย์ แม่ระมาด ตาก
406,Progreso,MX,89.71,scattered clouds,21.2833,-89.6667,Playa Linda Hotel
407,Mutata,CO,81.88,light rain,7.2441,-76.4356,RESIDENCIA ZULIMA
408,Chapais,CA,73.18,overcast clouds,49.7834,-74.8492,Hôtel Opémiska
410,Kamenka,RU,73.6,overcast clouds,51.3223,42.7678,
411,Noshiro,JP,70.92,broken clouds,40.2039,140.0242,Suigetsu
412,Kavaratti,IN,80.82,broken clouds,10.5669,72.642,Green leaf
413,Pincher Creek,CA,77.45,clear sky,49.4833,-113.952,BLUE MOUNTAIN MOTEL
414,Kyaikto,MM,81.95,scattered clouds,17.3,97.0167,နီလာ တည်းခိုခန်း
415,Kralendijk,BQ,85.98,broken clouds,12.15,-68.2667,Divi Flamingo Beach Resort & Casino
416,Muros,ES,80.17,clear sky,42.7762,-9.0603,Apartment Av. Castelao
417,Karaton,ID,73.33,overcast clouds,-6.3424,106.1045,Parkir Mobil Wisata CAS Water Park
419,Sucua,EC,75.94,moderate rain,-2.4667,-78.1667,Finca el Piura
421,Great Falls,US,79.99,few clouds,47.5002,-111.3008,La Quinta Inn & Suites by Wyndham Great Falls
423,San Mateo Del Mar,MX,83.07,overcast clouds,16.2,-95.0,
424,Shimoda,JP,77.11,broken clouds,34.6667,138.95,Shimoda Tokyu Hotel
427,Santos Dumont,BR,71.11,few clouds,-21.4567,-43.5525,Country Hotel e Leiteria São Luiz
429,Galle,LK,77.11,moderate rain,6.0367,80.217,Amangalla
431,Charkhi Dadri,IN,88.29,light rain,28.6,76.2667,Ombir Sheoran
434,Touros,BR,81.32,scattered clouds,-5.1989,-35.4608,INN NEW HORIZON
435,Tucuman,AR,78.8,smoke,-26.8241,-65.2226,Dallas Hotel Tucuman
436,Torbay,CA,70.88,overcast clouds,47.6666,-52.7314,Gallows Cove
437,Teguise,ES,73.62,few clouds,29.0605,-13.564,B&B La Casona de Nazaret
438,Jiangyou,CN,74.7,clear sky,31.7667,104.7167,Shangping Shuyuan Inn
439,Severnyy,RU,75.24,clear sky,50.677,36.5532,Full House North Mini-Hotel
441,Bridgetown,BB,88.29,scattered clouds,13.1,-59.6167,Hilton Barbados Resort
443,Sao Joao Do Paraiso,BR,80.47,clear sky,-15.3136,-42.0144,Avenida Palace Hotel
447,Meulaboh,ID,75.65,overcast clouds,4.1363,96.1285,Kost Pria
448,Xiongyue,CN,75.0,overcast clouds,40.1774,122.1228,Samsung Business Hotel
449,Makokou,GA,75.74,overcast clouds,0.5738,12.8642,Hôtel
452,Urucara,BR,89.15,overcast clouds,-2.5364,-57.76,Pousada Maria Bonita
453,La Macarena,CO,73.56,overcast clouds,2.1837,-73.7849,Casa Hotel Real
457,Eston,CA,74.91,clear sky,51.1501,-108.7514,Hearthside Place B&B
458,Mbandaka,CD,74.7,overcast clouds,0.0487,18.2603,Guest House Epervier
459,Carmelo,UY,75.0,overcast clouds,-33.9892,-58.2856,Los Muelles Boutique Hotel
461,Apalit,PH,83.14,moderate rain,14.95,120.7833,Hotel Impressa
462,Mahibadhoo,MV,82.78,overcast clouds,3.7833,72.9667,Omadhoo Inn
463,Natal,BR,84.42,scattered clouds,-5.795,-35.2094,Villa Park Hotel | Natal
464,Hobyo,SO,76.5,overcast clouds,5.3505,48.5268,Iftin hotel hobyo
466,Linping,CN,82.94,broken clouds,30.4225,120.2972,Super 8 Hangzhou Linping Subway Station
467,Olinda,BR,80.33,scattered clouds,-8.0089,-34.8553,Flat Quatro Rodas Olinda
468,Mahebourg,MU,71.26,broken clouds,-20.4081,57.7,Shandrani Beachcomber Resort & Spa
469,Jieshi,CN,84.06,few clouds,22.8134,115.8257,Yuehai Hotel
470,Pangkalanbuun,ID,73.92,overcast clouds,-2.6833,111.6167,Grand Kecubung Hotel
471,Yokadouma,CM,70.68,overcast clouds,3.5167,15.05,Hôtel De Ville De Yokadouma
472,Lardos,GR,82.94,clear sky,36.0942,28.0157,Lindos Princess Beach Hotel
477,Tecoanapa,MX,85.48,overcast clouds,16.5167,-98.75,Hotel Manglares
478,Sao Borja,BR,85.95,overcast clouds,-28.6606,-56.0044,Hotel Executivo
482,Bar Harbor,US,82.94,clear sky,44.3876,-68.2039,Atlantic Oceanside Hotel & Event Center
483,Wethersfield,US,87.03,scattered clouds,41.7143,-72.6526,Best Western Hartford Hotel & Suites
485,Rio Grande,BR,75.31,broken clouds,-32.035,-52.0986,Hotel Atlântico Rio Grande
486,Zhanakorgan,KZ,83.32,clear sky,43.9098,67.2495,"""Ақпалас"" қонақ үйі"
487,Jiangkou,CN,79.88,broken clouds,25.4872,119.1986,DFM Hotel
489,Hurghada,EG,87.84,clear sky,27.2574,33.8129,Sea Star Beau Rivage Hotel
490,Laguna,US,89.01,clear sky,38.421,-121.4238,"Holiday Inn Express & Suites Elk Grove Central - Hwy 99, an IHG Hotel"
492,Zhangye,CN,74.16,few clouds,38.9342,100.4517,Zhangye Lvzhou Holiday Inn
493,Yamada,JP,71.58,overcast clouds,39.4667,141.95,Iroha-ya Inn
494,Cantagallo,CO,86.58,broken clouds,7.376,-73.9196,Apartahotel Altamira
496,Spirit River,CA,82.83,clear sky,55.7833,-118.8361,Motel 49
497,Macomer,IT,76.39,clear sky,40.262,8.7699,B&B La Casa Antica
500,Komsomolskiy,UZ,84.92,clear sky,40.4272,71.7189,Ikathouse
508,Aleksandrov Gay,RU,78.67,light rain,50.147,48.5704,Gostinitsa
509,Vallenar,CL,70.99,scattered clouds,-28.5708,-70.7581,Humacao Bed & Breakfast
510,Canton,CN,87.87,clear sky,23.1167,113.25,Shangjiuwan Hotel
511,Uturoa,PF,78.51,light rain,-16.7333,-151.4333,Villa Tonoï
512,Guymon,US,89.6,clear sky,36.6828,-101.4816,Simple Rewards
513,Banikoara,BJ,80.4,overcast clouds,11.2985,2.4386,Hôtel de l'UCom CVPC
515,Boyolangu,ID,72.3,broken clouds,-8.1181,111.8935,Yos ega cv
516,Ndele,CF,72.23,light rain,8.4109,20.6473,
518,Marzuq,YE,84.15,broken clouds,14.4,46.4667,
519,Sampit,ID,73.53,overcast clouds,-2.5333,112.95,Aquarius Boutique Hotel Sampit
520,Balotra,IN,83.89,overcast clouds,25.8333,72.2333,Hotel City Square
521,Rayagada,IN,77.7,overcast clouds,19.1667,83.4167,"Hotel Swagath, Rayagada"
523,Terra Nova,BR,79.38,broken clouds,-12.3667,-40.6667,
524,Pasighat,IN,77.05,overcast clouds,28.0667,95.3333,Siang Guest House
526,Ahuimanu,US,82.11,broken clouds,21.4447,-157.8378,Paradise Bay Resort
529,Kibala,TD,73.58,overcast clouds,9.1104,18.3463,Prasant Hotels
530,Marfino,RU,78.94,clear sky,55.7028,37.3822,Nemchinovka-Park
533,Lohardaga,IN,76.03,moderate rain,23.4333,84.6833,Shorya Sweet Palace
534,Axim,GH,76.66,broken clouds,4.8699,-2.2405,Axim Beach Resort And Spa
536,Vaitape,PF,78.01,clear sky,-16.5167,-151.75,Conrad Bora Bora Nui
537,Metro,ID,74.95,broken clouds,-5.1131,105.3067,OYO 3177 Wisma Lintang
538,El Alto,PE,74.86,scattered clouds,-4.2714,-81.2147,Black Marlin Restaurant & Hospedaje
539,Ponta Grossa,BR,71.62,broken clouds,-25.095,-50.1619,Hotel Ponta Grossa Plateau
544,Sai Buri,TH,77.43,overcast clouds,6.7013,101.6168,สวนป่ารีสอร์ท
546,Kirakira,SB,77.58,overcast clouds,-10.4544,161.9205,SanBiz Lodge
548,Akyab,MM,82.96,overcast clouds,20.15,92.9,Hotel Memory
549,Catuday,PH,81.36,overcast clouds,16.2923,119.8062,Benjie's Kubo & Cottages
551,Foca,TR,85.87,clear sky,38.6703,26.7566,Huri&Nuri Hotel
552,Cao Bang,VN,75.43,broken clouds,22.6667,106.25,khách sạn 88
553,Meadow Lake,US,88.61,few clouds,34.8014,-106.5436,TumbleWeed RV Park
561,Mossendjo,CG,74.32,scattered clouds,-2.9506,12.7261,HOTEL D'ASSISE
562,Aioi,JP,81.36,overcast clouds,34.8036,134.4681,Toyoko Inn Aioi-eki Shinkansen-guchi
564,Luis Correia,BR,87.8,few clouds,-2.8792,-41.6669,Hotel Amarração
565,Itarema,BR,84.02,scattered clouds,-2.9248,-39.9167,"Sea Lounge! Bar, Club & Restaurant"
566,Praia Da Vitoria,PT,78.76,broken clouds,38.7333,-27.0667,Hotel Branco I
567,Nedryhayliv,UA,71.64,broken clouds,50.834,33.8763,Staryi Mlyn
571,Kaliua,TZ,77.11,overcast clouds,-5.0606,31.7936,Millennium Complex
572,Kumluca,TR,85.95,clear sky,36.3703,30.2869,Akkol Apart
574,Chateauneuf-Les-Martigues,FR,88.32,clear sky,43.3833,5.1667,Hotel Restaurant L'Hacienda
575,Jiehu,CN,73.85,broken clouds,35.5428,118.455,Jixiang Hotel
576,Ryotsu,JP,75.24,overcast clouds,38.0833,138.4333,Sadokamoko Onsen Kohanno Yado Yoshidaya
577,Mae Chan,TH,78.46,few clouds,20.1467,99.8526,Kiang Dao Resort
578,Kharakvasla,IN,73.38,overcast clouds,18.4333,73.7667,Savali Resort
580,Bijela,BA,75.85,moderate rain,43.6086,17.9519,Garden City Konjic
581,Puerto Ayacucho,VE,83.55,overcast clouds,5.6639,-67.6236,Posada Turistica Manapiare
584,Humberto De Campos,BR,85.44,broken clouds,-2.5983,-43.4611,Pousada do Cabeça
585,San Quintin,MX,73.44,broken clouds,30.4833,-115.95,Don Eddie's Sport Fishing Center
587,Tsybuliv,UA,71.71,overcast clouds,49.0766,29.8461,
589,Katghora,IN,80.22,overcast clouds,22.5,82.55,Mr.K.D. Mahant
590,Nha Trang,VN,78.8,broken clouds,12.25,109.1833,Hanoi Golden Hotel
592,Benguela,AO,70.3,broken clouds,-12.5763,13.4055,Hotel Praia Morena
597,Kasiri,SL,80.78,overcast clouds,8.9412,-13.1148,
599,Bardiyah,LY,80.8,clear sky,31.7561,25.0865,بورتو بردية
600,Kinshasa,CD,82.6,broken clouds,-4.3246,15.3215,Star Hotel II
604,Kindu,CD,77.95,broken clouds,-2.95,25.95,Résidence Okanda
605,Iralaya,HN,84.29,scattered clouds,15.0,-83.2333,Iglesia morava renovada
607,Biltine,TD,89.04,overcast clouds,14.5333,20.9167,Hôtel Trois Étoiles de Biltine
609,Palauig,PH,81.64,heavy intensity rain,15.435,119.9045,Villa Raphael Resort
610,Fomboni,KM,75.99,scattered clouds,-12.28,43.7425,Auberge les abou
611,Birjand,IR,88.27,few clouds,32.8663,59.2211,Birjand Tourist Hotel
612,Ormara,PK,82.62,overcast clouds,25.2088,64.6357,Kenara Colony House for Rent
613,Kikwit,CD,82.71,broken clouds,-5.041,18.8162,HOTEL PLACE YALABA
614,North Bend,US,77.23,clear sky,43.4065,-124.2243,Red Lion Hotel Coos Bay
615,Erzin,TR,78.35,clear sky,36.9559,36.2,Artemis Otel
616,Vila Velha,BR,78.75,few clouds,-20.3297,-40.2925,Hotel Vitória Palace
617,Nan,TH,75.29,clear sky,18.8333,100.6667,สะเนียน2
621,Camacari,BR,73.17,broken clouds,-12.6975,-38.3242,Sítio Blasi
623,Lucea,JM,89.85,few clouds,18.451,-78.1736,Grand Palladium Jamaica Resort & Spa
624,Zhumadian,CN,76.08,heavy intensity rain,32.9794,114.0294,Ouyue House Hotel
625,Kaduqli,SD,73.69,overcast clouds,11.0167,29.7167,Nussyba
626,Teahupoo,PF,71.56,light rain,-17.8333,-149.2667,Vanira Lodge
630,Badulla,LK,70.54,overcast clouds,6.9895,81.0557,Budget comfort holiday
639,Bandar-E Lengeh,IR,87.91,broken clouds,26.5579,54.8807,کافی نت پارس
641,Kihei,US,80.83,few clouds,20.785,-156.4656,Maui Sunset
643,Sur,OM,82.42,few clouds,22.5667,59.5289,Sur Plaza Hotel
645,Imbituba,BR,75.09,broken clouds,-28.24,-48.6703,Praia Hotel Imbituba
649,Krasnoarmeysk,RU,72.5,scattered clouds,51.0239,45.6969,"Hotel ""Your home-Balzer"""
650,Bud,US,83.75,overcast clouds,39.447,-86.1758,Ted McQuinn Trust
651,Beaverlodge,CA,79.95,clear sky,55.2166,-119.4361,Side Trax Inn
653,Arona,ES,74.12,clear sky,28.0996,-16.681,Paradise Court
654,Asau,RO,72.52,scattered clouds,46.4333,26.4,Casa Mika Ciobanus
655,Beitbridge,ZW,70.66,clear sky,-22.2167,30.0,Beitbridge Express Hotel
660,Padang,ID,77.27,scattered clouds,-0.9492,100.3543,Mercure Padang
664,Gijon,ES,71.83,few clouds,43.5357,-5.6615,Hotel Norte
667,Kyabe,TD,73.35,overcast clouds,9.4515,18.9449,
669,Kieta,PG,78.08,broken clouds,-6.2167,155.6333,Uruna Bay Retreat
670,Woodstock,CA,79.02,overcast clouds,43.1334,-80.7497,"Holiday Inn Express & Suites Woodstock South, an IHG Hotel"
671,Changji,CN,83.19,clear sky,44.0167,87.3167,Lvye Holiday Resort
672,Zhelyabovka,UA,72.52,clear sky,45.3988,34.7578,
674,Agadir,MA,86.45,clear sky,30.4202,-9.5982,Iberostar Founty Beach
676,Trieste,IT,85.86,overcast clouds,45.6486,13.78,Hotel NH Trieste
677,Montrose,US,74.61,overcast clouds,38.4166,-108.2673,
678,Makaha,US,82.31,few clouds,21.4694,-158.2175,Hawaiian Princess Resort
679,Oistins,BB,87.89,scattered clouds,13.0667,-59.5333,Butterfly Beach Hotel
680,Nhulunbuy,AU,72.21,clear sky,-12.2333,136.7667,East Arnhem Real Estate
